{
    "BlueSG (EV)": [
        {
            "name": "BlueSG (EV)",
            "description": "RENTAL",
            "type": "ev",
            "url": "www.google.com",
            "formatted_address": "16, Science Park Dr",
            "address": {"lat": 1.29014253616333, "lng": 103.786895751953},
            "rating": "4.3",
            "reviews": "1000",
            "price": "$$"
        },
        {
            "name": "BlueSG (EV)",
            "description": "RENTAL + CHARGING",
            "type": "ev",
            "url": "www.google.com",
            "formatted_address": "Claymore Road 21",
            "address": {"lat": 1.3077385, "lng": 103.8301985},
            "rating": "4.3",
            "reviews": "1000",
            "price": "$$"
        },
        {
            "name": "BlueSG (EV)",
            "description": "RENTAL",
            "type": "ev",
            "url": "www.google.com",
            "formatted_address": "354 Jurong East Avenue 1",
            "address": {"lat": 1.3447, "lng": 103.7325},
            "rating": "4.3",
            "reviews": "1000",
            "price": "$$"
        },
        {
            "name": "BlueSG (EV)",
            "description": "RENTAL",
            "type": "ev",
            "url": "www.google.com",
            "formatted_address": "358A Admiralty Drive",
            "address": {"lat": 1.44891, "lng": 103.81607},
            "rating": "4.3",
            "reviews": "1000",
            "price": "$$"
        },
        {
            "name": "BlueSG (EV)",
            "description": "RENTAL",
            "type": "ev",
            "url": "www.google.com",
            "formatted_address": "120A Lorong 2 Toa Payoh",
            "address": {"lat": 1.33983, "lng": 103.84585},
            "rating": "4.3",
            "reviews": "1000",
            "price": "$$"
        },
        {
            "name": "BlueSG (EV)",
            "description": "RENTAL",
            "type": "ev",
            "url": "www.google.com",
            "formatted_address": "73 Redhill Road",
            "address": {"lat": 1.288028, "lng": 103.81733},
            "rating": "4.3",
            "reviews": "1000",
            "price": "$$"
        },
        {
            "name": "BlueSG (EV)",
            "description": "RENTAL",
            "type": "ev",
            "url": "www.google.com",
            "formatted_address": "128 Punggol Field  Walk",
            "address": {"lat": 1.393079, "lng": 103.913409},
            "rating": "4.3",
            "reviews": "1000",
            "price": "$$"
        },
        {
            "name": "BlueSG (EV)",
            "description": "RENTAL",
            "type": "ev",
            "url": "www.google.com",
            "formatted_address": "718A Pasir Ris Street 72",
            "address": {"lat": 1.381854, "lng": 103.936034},
            "rating": "4.3",
            "reviews": "1000",
            "price": "$$"
        },
        {
            "name": "BlueSG (EV)",
            "description": "RENTAL",
            "type": "ev",
            "url": "www.google.com",
            "formatted_address": "175 Yung Kuang, Yung Kuang Road",
            "address": {"lat": 1.3321898, "lng": 103.7218896},
            "rating": "4.3",
            "reviews": "1000",
            "price": "$$"
        },
        {
            "name": "BlueSG (EV)",
            "description": "RENTAL",
            "type": "ev",
            "url": "www.google.com",
            "formatted_address": "146A Teck Whye Avenue S",
            "address": {"lat": 1.38111, "lng": 103.75332},
            "rating": "4.3",
            "reviews": "1000",
            "price": "$$"
        },
        {
            "name": "BlueSG (EV)",
            "description": "RENTAL + CHARGING",
            "type": "ev",
            "url": "www.google.com",
            "formatted_address": "18 Holland Drive",
            "address": {"lat": 1.3118, "lng": 103.79207},
            "rating": "4.3",
            "reviews": "1000",
            "price": "$$"
        },
        {
            "name": "BlueSG (EV)",
            "description": "RENTAL",
            "type": "ev",
            "url": "www.google.com",
            "formatted_address": "170A Lompang Road",
            "address": {"lat": 1.378999, "lng": 103.765156},
            "rating": "4.3",
            "reviews": "1000",
            "price": "$$"
        },
        {
            "name": "BlueSG (EV)",
            "description": "RENTAL",
            "type": "ev",
            "url": "www.google.com",
            "formatted_address": "4 Race Course Lane",
            "address": {"lat": 1.30954, "lng": 103.8531},
            "rating": "4.3",
            "reviews": "1000",
            "price": "$$"
        },
        {
            "name": "BlueSG (EV)",
            "description": "RENTAL + CHARGING",
            "type": "ev",
            "url": "www.google.com",
            "formatted_address": "28 Mohamed Sultan Road",
            "address": {"lat": 1.29288, "lng": 103.8413},
            "rating": "4.3",
            "reviews": "1000",
            "price": "$$"
        },
        {
            "name": "BlueSG (EV)",
            "description": "RENTAL",
            "type": "ev",
            "url": "www.google.com",
            "formatted_address": "282 Bishan Street 22",
            "address": {"lat": 1.358166, "lng": 103.844633},
            "rating": "4.3",
            "reviews": "1000",
            "price": "$$"
        },
        {
            "name": "BlueSG (EV)",
            "description": "RENTAL",
            "type": "ev",
            "url": "www.google.com",
            "formatted_address": "323 Sengkang East Way",
            "address": {"lat": 1.39333, "lng": 103.89251},
            "rating": "4.3",
            "reviews": "1000",
            "price": "$$"
        },
        {
            "name": "BlueSG (EV)",
            "description": "RENTAL",
            "type": "ev",
            "url": "www.google.com",
            "formatted_address": "410 Ang Mo Kio Avenue 10",
            "address": {"lat": 1.3632318, "lng": 103.8546083},
            "rating": "4.3",
            "reviews": "1000",
            "price": "$$"
        },
        {
            "name": "BlueSG (EV)",
            "description": "RENTAL + CHARGING",
            "type": "ev",
            "url": "www.google.com",
            "formatted_address": "265 Yishun Street 22",
            "address": {"lat": 1.4369706, "lng": 103.8383619},
            "rating": "4.3",
            "reviews": "1000",
            "price": "$$"
        },
        {
            "name": "BlueSG (EV)",
            "description": "RENTAL",
            "type": "ev",
            "url": "www.google.com",
            "formatted_address": "199 Punggol Field",
            "address": {"lat": 1.400142, "lng": 103.905715},
            "rating": "4.3",
            "reviews": "1000",
            "price": "$$"
        },
        {
            "name": "BlueSG (EV)",
            "description": "RENTAL",
            "type": "ev",
            "url": "www.google.com",
            "formatted_address": "453 Fernvale Road",
            "address": {"lat": 1.393954, "lng": 103.87528},
            "rating": "4.3",
            "reviews": "1000",
            "price": "$$"
        },
        {
            "name": "BlueSG (EV)",
            "description": "RENTAL",
            "type": "ev",
            "url": "www.google.com",
            "formatted_address": "933 Hougang Avenue 9",
            "address": {"lat": 1.37566, "lng": 103.88252},
            "rating": "4.3",
            "reviews": "1000",
            "price": "$$"
        },
        {
            "name": "BlueSG (EV)",
            "description": "RENTAL",
            "type": "ev",
            "url": "www.google.com",
            "formatted_address": "2A Lorong Liew Lian",
            "address": {"lat": 1.34985, "lng": 103.875774},
            "rating": "4.3",
            "reviews": "1000",
            "price": "$$"
        },
        {
            "name": "BlueSG (EV)",
            "description": "RENTAL",
            "type": "ev",
            "url": "www.google.com",
            "formatted_address": "1 Sultan Gate",
            "address": {"lat": 1.30118, "lng": 103.86091},
            "rating": "4.3",
            "reviews": "1000",
            "price": "$$"
        },
        {
            "name": "BlueSG (EV)",
            "description": "RENTAL + CHARGING",
            "type": "ev",
            "url": "www.google.com",
            "formatted_address": "108 Simei Street 1",
            "address": {"lat": 1.343322, "lng": 103.951077},
            "rating": "4.3",
            "reviews": "1000",
            "price": "$$"
        },
        {
            "name": "BlueSG (EV)",
            "description": "RENTAL",
            "type": "ev",
            "url": "www.google.com",
            "formatted_address": "3 Stanley Street",
            "address": {"lat": 1.279759, "lng": 103.847743},
            "rating": "4.3",
            "reviews": "1000",
            "price": "$$"
        },
        {
            "name": "BlueSG (EV)",
            "description": "RENTAL",
            "type": "ev",
            "url": "www.google.com",
            "formatted_address": "152A Bishan Street 11",
            "address": {"lat": 1.34516, "lng": 103.85474},
            "rating": "4.3",
            "reviews": "1000",
            "price": "$$"
        },
        {
            "name": "BlueSG (EV)",
            "description": "RENTAL",
            "type": "ev",
            "url": "www.google.com",
            "formatted_address": "38 Tan Quee Lan Street",
            "address": {"lat": 1.29872, "lng": 103.85651},
            "rating": "4.3",
            "reviews": "1000",
            "price": "$$"
        },
        {
            "name": "BlueSG (EV)",
            "description": "RENTAL",
            "type": "ev",
            "url": "www.google.com",
            "formatted_address": "624A Jurong West Street 61",
            "address": {"lat": 1.341173, "lng": 103.698491},
            "rating": "4.3",
            "reviews": "1000",
            "price": "$$"
        },
        {
            "name": "BlueSG (EV)",
            "description": "RENTAL",
            "type": "ev",
            "url": "www.google.com",
            "formatted_address": "154A Bukit Batok West Avenue",
            "address": {"lat": 1.347503, "lng": 103.743757},
            "rating": "4.3",
            "reviews": "1000",
            "price": "$$"
        },
        {
            "name": "BlueSG (EV)",
            "description": "RENTAL",
            "type": "ev",
            "url": "www.google.com",
            "formatted_address": "780 Woodlands Crescent, Woodlands Dew",
            "address": {"lat": 1.448457, "lng": 103.800855},
            "rating": "4.3",
            "reviews": "1000",
            "price": "$$"
        },
        {
            "name": "BlueSG (EV)",
            "description": "RENTAL + CHARGING",
            "type": "ev",
            "url": "www.google.com",
            "formatted_address": "157 Ang Mo Kio Avenue 4",
            "address": {"lat": 1.3751449, "lng": 103.839079},
            "rating": "4.3",
            "reviews": "1000",
            "price": "$$"
        },
        {
            "name": "BlueSG (EV)",
            "description": "RENTAL",
            "type": "ev",
            "url": "www.google.com",
            "formatted_address": "184 Bedok North Road, Vista 8",
            "address": {"lat": 1.326199, "lng": 103.94176},
            "rating": "4.3",
            "reviews": "1000",
            "price": "$$"
        },
        {
            "name": "BlueSG (EV)",
            "description": "RENTAL",
            "type": "ev",
            "url": "www.google.com",
            "formatted_address": "28 Mosque Street",
            "address": {"lat": 1.28345, "lng": 103.84541},
            "rating": "4.3",
            "reviews": "1000",
            "price": "$$"
        },
        {
            "name": "BlueSG (EV)",
            "description": "RENTAL",
            "type": "ev",
            "url": "www.google.com",
            "formatted_address": "44 Jalan Merah Saga",
            "address": {"lat": 1.31187, "lng": 103.79699},
            "rating": "4.3",
            "reviews": "1000",
            "price": "$$"
        },
        {
            "name": "BlueSG (EV)",
            "description": "RENTAL + CHARGING",
            "type": "ev",
            "url": "www.google.com",
            "formatted_address": "420 Tampines Street 41",
            "address": {"lat": 1.357537, "lng": 103.947125},
            "rating": "4.3",
            "reviews": "1000",
            "price": "$$"
        },
        {
            "name": "BlueSG (EV)",
            "description": "RENTAL",
            "type": "ev",
            "url": "www.google.com",
            "formatted_address": "269B Queen Street",
            "address": {"lat": 1.3001556, "lng": 103.8539147},
            "rating": "4.3",
            "reviews": "1000",
            "price": "$$"
        },
        {
            "name": "BlueSG (EV)",
            "description": "RENTAL",
            "type": "ev",
            "url": "www.google.com",
            "formatted_address": "23 Peck Seah Street",
            "address": {"lat": 1.27767, "lng": 103.84494},
            "rating": "4.3",
            "reviews": "1000",
            "price": "$$"
        },
        {
            "name": "BlueSG (EV)",
            "description": "RENTAL + CHARGING",
            "type": "ev",
            "url": "www.google.com",
            "formatted_address": "1 Fusionopolis Place",
            "address": {"lat": 1.29866, "lng": 103.78748},
            "rating": "4.3",
            "reviews": "1000",
            "price": "$$"
        },
        {
            "name": "BlueSG (EV)",
            "description": "RENTAL",
            "type": "ev",
            "url": "www.google.com",
            "formatted_address": "443 Fajar Road",
            "address": {"lat": 1.3810266, "lng": 103.7706337},
            "rating": "4.3",
            "reviews": "1000",
            "price": "$$"
        },
        {
            "name": "BlueSG (EV)",
            "description": "RENTAL",
            "type": "ev",
            "url": "www.google.com",
            "formatted_address": "146A Rivervale Crescent",
            "address": {"lat": 1.3903867, "lng": 103.9061507},
            "rating": "4.3",
            "reviews": "1000",
            "price": "$$"
        },
        {
            "name": "BlueSG (EV)",
            "description": "RENTAL",
            "type": "ev",
            "url": "www.google.com",
            "formatted_address": "307A Tampines Street 32",
            "address": {"lat": 1.353513, "lng": 103.956151},
            "rating": "4.3",
            "reviews": "1000",
            "price": "$$"
        },
        {
            "name": "BlueSG (EV)",
            "description": "RENTAL",
            "type": "ev",
            "url": "www.google.com",
            "formatted_address": "226 Ang Mo Kio Street 22",
            "address": {"lat": 1.366843, "lng": 103.840661},
            "rating": "4.3",
            "reviews": "1000",
            "price": "$$"
        },
        {
            "name": "BlueSG (EV)",
            "description": "RENTAL",
            "type": "ev",
            "url": "www.google.com",
            "formatted_address": "93 Kitchener Road",
            "address": {"lat": 1.3085176, "lng": 103.8588033},
            "rating": "4.3",
            "reviews": "1000",
            "price": "$$"
        },
        {
            "name": "BlueSG (EV)",
            "description": "RENTAL",
            "type": "ev",
            "url": "www.google.com",
            "formatted_address": "118 Aljunied Avenue 2",
            "address": {"lat": 1.320235, "lng": 103.88772},
            "rating": "4.3",
            "reviews": "1000",
            "price": "$$"
        },
        {
            "name": "BlueSG (EV)",
            "description": "RENTAL",
            "type": "ev",
            "url": "www.google.com",
            "formatted_address": "54 Commonwealth drive",
            "address": {"lat": 1.301726, "lng": 103.796861},
            "rating": "4.3",
            "reviews": "1000",
            "price": "$$"
        },
        {
            "name": "BlueSG (EV)",
            "description": "RENTAL",
            "type": "ev",
            "url": "www.google.com",
            "formatted_address": "267A Toh Guan road",
            "address": {"lat": 1.341566, "lng": 103.745218},
            "rating": "4.3",
            "reviews": "1000",
            "price": "$$"
        },
        {
            "name": "BlueSG (EV)",
            "description": "RENTAL",
            "type": "ev",
            "url": "www.google.com",
            "formatted_address": "508 Wellington circle",
            "address": {"lat": 1.452938, "lng": 103.81986},
            "rating": "4.3",
            "reviews": "1000",
            "price": "$$"
        },
        {
            "name": "BlueSG (EV)",
            "description": "RENTAL",
            "type": "ev",
            "url": "www.google.com",
            "formatted_address": "190C Rivervale drive",
            "address": {"lat": 1.39479, "lng": 103.902436},
            "rating": "4.3",
            "reviews": "1000",
            "price": "$$"
        },
        {
            "name": "BlueSG (EV)",
            "description": "RENTAL",
            "type": "ev",
            "url": "www.google.com",
            "formatted_address": "124D Rivervale drive",
            "address": {"lat": 1.387552, "lng": 103.902722},
            "rating": "4.3",
            "reviews": "1000",
            "price": "$$"
        },
        {
            "name": "BlueSG (EV)",
            "description": "RENTAL",
            "type": "ev",
            "url": "www.google.com",
            "formatted_address": "2A Joo seng Road",
            "address": {"lat": 1.334573, "lng": 103.879269},
            "rating": "4.3",
            "reviews": "1000",
            "price": "$$"
        },
        {
            "name": "BlueSG (EV)",
            "description": "RENTAL",
            "type": "ev",
            "url": "www.google.com",
            "formatted_address": "701A Tampines street 71",
            "address": {"lat": 1.356541, "lng": 103.936594},
            "rating": "4.3",
            "reviews": "1000",
            "price": "$$"
        },
        {
            "name": "BlueSG (EV)",
            "description": "RENTAL",
            "type": "ev",
            "url": "www.google.com",
            "formatted_address": "320 Shunfu Road, Shunfu Mart",
            "address": {"lat": 1.35221, "lng": 103.836832},
            "rating": "4.3",
            "reviews": "1000",
            "price": "$$"
        },
        {
            "name": "BlueSG (EV)",
            "description": "RENTAL",
            "type": "ev",
            "url": "www.google.com",
            "formatted_address": "579A Woodlands Drive 16",
            "address": {"lat": 1.431012, "lng": 103.795431},
            "rating": "4.3",
            "reviews": "1000",
            "price": "$$"
        },
        {
            "name": "BlueSG (EV)",
            "description": "RENTAL",
            "type": "ev",
            "url": "www.google.com",
            "formatted_address": "78A Telok Blangah street 32",
            "address": {"lat": 1.273384, "lng": 103.808952},
            "rating": "4.3",
            "reviews": "1000",
            "price": "$$"
        },
        {
            "name": "BlueSG (EV)",
            "description": "RENTAL",
            "type": "ev",
            "url": "www.google.com",
            "formatted_address": "317 Yishun Avenue 9, Yishun Greenwalk",
            "address": {"lat": 1.433711, "lng": 103.842253},
            "rating": "4.3",
            "reviews": "1000",
            "price": "$$"
        },
        {
            "name": "BlueSG (EV)",
            "description": "RENTAL",
            "type": "ev",
            "url": "www.google.com",
            "formatted_address": "980 Buangkok Crescent",
            "address": {"lat": 1.380032, "lng": 103.880138},
            "rating": "4.3",
            "reviews": "1000",
            "price": "$$"
        },
        {
            "name": "BlueSG (EV)",
            "description": "RENTAL",
            "type": "ev",
            "url": "www.google.com",
            "formatted_address": "238A Serangoon Avenue 2",
            "address": {"lat": 1.354025, "lng": 103.868894},
            "rating": "4.3",
            "reviews": "1000",
            "price": "$$"
        },
        {
            "name": "BlueSG (EV)",
            "description": "RENTAL",
            "type": "ev",
            "url": "www.google.com",
            "formatted_address": "199A Pasir Ris Street 12",
            "address": {"lat": 1.366493, "lng": 103.959538},
            "rating": "4.3",
            "reviews": "1000",
            "price": "$$"
        },
        {
            "name": "BlueSG (EV)",
            "description": "RENTAL",
            "type": "ev",
            "url": "www.google.com",
            "formatted_address": "504 Yishun street 51",
            "address": {"lat": 1.418416, "lng": 103.844755},
            "rating": "4.3",
            "reviews": "1000",
            "price": "$$"
        },
        {
            "name": "BlueSG (EV)",
            "description": "RENTAL",
            "type": "ev",
            "url": "www.google.com",
            "formatted_address": "429A Choa Chu Kang Avenue 4",
            "address": {"lat": 1.383515, "lng": 103.740927},
            "rating": "4.3",
            "reviews": "1000",
            "price": "$$"
        },
        {
            "name": "BlueSG (EV)",
            "description": "RENTAL",
            "type": "ev",
            "url": "www.google.com",
            "formatted_address": "181 Marsiling Road, Marsiling Heights",
            "address": {"lat": 1.439595, "lng": 103.779857},
            "rating": "4.3",
            "reviews": "1000",
            "price": "$$"
        },
        {
            "name": "BlueSG (EV)",
            "description": "RENTAL",
            "type": "ev",
            "url": "www.google.com",
            "formatted_address": "659 Jurong West Street 65",
            "address": {"lat": 1.3373547, "lng": 103.702388},
            "rating": "4.3",
            "reviews": "1000",
            "price": "$$"
        },
        {
            "name": "BlueSG (EV)",
            "description": "RENTAL",
            "type": "ev",
            "url": "www.google.com",
            "formatted_address": "494A Tampines Street 43",
            "address": {"lat": 1.363097, "lng": 103.952238},
            "rating": "4.3",
            "reviews": "1000",
            "price": "$$"
        },
        {
            "name": "BlueSG (EV)",
            "description": "RENTAL",
            "type": "ev",
            "url": "www.google.com",
            "formatted_address": "19A Dover Crescent",
            "address": {"lat": 1.307398, "lng": 103.784616},
            "rating": "4.3",
            "reviews": "1000",
            "price": "$$"
        },
        {
            "name": "BlueSG (EV)",
            "description": "RENTAL",
            "type": "ev",
            "url": "www.google.com",
            "formatted_address": "85 to 92A Pipit Road",
            "address": {"lat": 1.32276, "lng": 103.886197},
            "rating": "4.3",
            "reviews": "1000",
            "price": "$$"
        },
        {
            "name": "BlueSG (EV)",
            "description": "RENTAL",
            "type": "ev",
            "url": "www.google.com",
            "formatted_address": "261 Punggol Way",
            "address": {"lat": 1.40541, "lng": 103.896933},
            "rating": "4.3",
            "reviews": "1000",
            "price": "$$"
        },
        {
            "name": "BlueSG (EV)",
            "description": "RENTAL",
            "type": "ev",
            "url": "www.google.com",
            "formatted_address": "649A Woodlands ring Road",
            "address": {"lat": 1.438732, "lng": 103.800336},
            "rating": "4.3",
            "reviews": "1000",
            "price": "$$"
        },
        {
            "name": "BlueSG (EV)",
            "description": "RENTAL",
            "type": "ev",
            "url": "www.google.com",
            "formatted_address": "60A Lorong 4 Toa Payoh",
            "address": {"lat": 1.336504, "lng": 103.851158},
            "rating": "4.3",
            "reviews": "1000",
            "price": "$$"
        },
        {
            "name": "BlueSG (EV)",
            "description": "RENTAL",
            "type": "ev",
            "url": "www.google.com",
            "formatted_address": "809 Choa Chu Kang Avenue 1",
            "address": {"lat": 1.3758, "lng": 103.7445},
            "rating": "4.3",
            "reviews": "1000",
            "price": "$$"
        },
        {
            "name": "BlueSG (EV)",
            "description": "RENTAL",
            "type": "ev",
            "url": "www.google.com",
            "formatted_address": "259 Outram Road (Seng Poh Road)",
            "address": {"lat": 1.285034, "lng": 103.834902},
            "rating": "4.3",
            "reviews": "1000",
            "price": "$$"
        },
        {
            "name": "BlueSG (EV)",
            "description": "RENTAL",
            "type": "ev",
            "url": "www.google.com",
            "formatted_address": "336A Sembawang Crescent",
            "address": {"lat": 1.446371, "lng": 103.815026},
            "rating": "4.3",
            "reviews": "1000",
            "price": "$$"
        },
        {
            "name": "BlueSG (EV)",
            "description": "RENTAL",
            "type": "ev",
            "url": "www.google.com",
            "formatted_address": "308 Anchorvale Road",
            "address": {"lat": 1.389624, "lng": 103.886397},
            "rating": "4.3",
            "reviews": "1000",
            "price": "$$"
        },
        {
            "name": "BlueSG (EV)",
            "description": "RENTAL",
            "type": "ev",
            "url": "www.google.com",
            "formatted_address": "596 Ang Mo Kio Street 52",
            "address": {"lat": 1.372412, "lng": 103.851404},
            "rating": "4.3",
            "reviews": "1000",
            "price": "$$"
        },
        {
            "name": "BlueSG (EV)",
            "description": "RENTAL",
            "type": "ev",
            "url": "www.google.com",
            "formatted_address": "26 Jalan Membina",
            "address": {"lat": 1.28294, "lng": 103.825489},
            "rating": "4.3",
            "reviews": "1000",
            "price": "$$"
        },
        {
            "name": "BlueSG (EV)",
            "description": "RENTAL",
            "type": "ev",
            "url": "www.google.com",
            "formatted_address": "890 Tampines Avenue 1",
            "address": {"lat": 1.34709, "lng": 103.934193},
            "rating": "4.3",
            "reviews": "1000",
            "price": "$$"
        },
        {
            "name": "BlueSG (EV)",
            "description": "RENTAL",
            "type": "ev",
            "url": "www.google.com",
            "formatted_address": "61 Teban Gardens Road",
            "address": {"lat": 1.322132, "lng": 103.738434},
            "rating": "4.3",
            "reviews": "1000",
            "price": "$$"
        },
        {
            "name": "BlueSG (EV)",
            "description": "RENTAL + CHARGING",
            "type": "ev",
            "url": "www.google.com",
            "formatted_address": "9 Raffles Place, Republic Plaza",
            "address": {"lat": 1.283658, "lng": 103.850455},
            "rating": "4.3",
            "reviews": "1000",
            "price": "$$"
        },
        {
            "name": "BlueSG (EV)",
            "description": "RENTAL",
            "type": "ev",
            "url": "www.google.com",
            "formatted_address": "8 Sentosa Gateway",
            "address": {"lat": 1.254335, "lng": 103.825533},
            "rating": "4.3",
            "reviews": "1000",
            "price": "$$"
        },
        {
            "name": "BlueSG (EV)",
            "description": "RENTAL",
            "type": "ev",
            "url": "www.google.com",
            "formatted_address": "547 Segar Road",
            "address": {"lat": 1.388124, "lng": 103.7696},
            "rating": "4.3",
            "reviews": "1000",
            "price": "$$"
        },
        {
            "name": "BlueSG (EV)",
            "description": "RENTAL + CHARGING",
            "type": "ev",
            "url": "www.google.com",
            "formatted_address": "132 Simei Street 1",
            "address": {"lat": 1.3472048, "lng": 103.9562201},
            "rating": "4.3",
            "reviews": "1000",
            "price": "$$"
        },
        {
            "name": "BlueSG (EV)",
            "description": "RENTAL + CHARGING",
            "type": "ev",
            "url": "www.google.com",
            "formatted_address": "902 Tampines Avenue 4",
            "address": {"lat": 1.351249, "lng": 103.939541},
            "rating": "4.3",
            "reviews": "1000",
            "price": "$$"
        },
        {
            "name": "BlueSG (EV)",
            "description": "RENTAL",
            "type": "ev",
            "url": "www.google.com",
            "formatted_address": "953 Jurong West Street 91",
            "address": {"lat": 1.342364, "lng": 103.690355},
            "rating": "4.3",
            "reviews": "1000",
            "price": "$$"
        },
        {
            "name": "BlueSG (EV)",
            "description": "RENTAL",
            "type": "ev",
            "url": "www.google.com",
            "formatted_address": "13 North Bridge Road",
            "address": {"lat": 1.304194, "lng": 103.863115},
            "rating": "4.3",
            "reviews": "1000",
            "price": "$$"
        },
        {
            "name": "BlueSG (EV)",
            "description": "RENTAL",
            "type": "ev",
            "url": "www.google.com",
            "formatted_address": "11A Lorong 8 Toa Payoh",
            "address": {"lat": 1.336628, "lng": 103.859568},
            "rating": "4.3",
            "reviews": "1000",
            "price": "$$"
        },
        {
            "name": "BlueSG (EV)",
            "description": "RENTAL",
            "type": "ev",
            "url": "www.google.com",
            "formatted_address": "19A Jalan Tenteram",
            "address": {"lat": 1.327601, "lng": 103.859515},
            "rating": "4.3",
            "reviews": "1000",
            "price": "$$"
        },
        {
            "name": "BlueSG (EV)",
            "description": "RENTAL",
            "type": "ev",
            "url": "www.google.com",
            "formatted_address": "504 Montreal Drive",
            "address": {"lat": 1.450844, "lng": 103.824006},
            "rating": "4.3",
            "reviews": "1000",
            "price": "$$"
        },
        {
            "name": "BlueSG (EV)",
            "description": "RENTAL",
            "type": "ev",
            "url": "www.google.com",
            "formatted_address": "56A Strathmore Avenue",
            "address": {"lat": 1.292857, "lng": 103.809891},
            "rating": "4.3",
            "reviews": "1000",
            "price": "$$"
        },
        {
            "name": "BlueSG (EV)",
            "description": "RENTAL",
            "type": "ev",
            "url": "www.google.com",
            "formatted_address": "220 Bedok Central",
            "address": {"lat": 1.325543, "lng": 103.935059},
            "rating": "4.3",
            "reviews": "1000",
            "price": "$$"
        },
        {
            "name": "BlueSG (EV)",
            "description": "RENTAL",
            "type": "ev",
            "url": "www.google.com",
            "formatted_address": "11A Boon Tiong Road",
            "address": {"lat": 1.286326, "lng": 103.829076},
            "rating": "4.3",
            "reviews": "1000",
            "price": "$$"
        },
        {
            "name": "BlueSG (EV)",
            "description": "RENTAL",
            "type": "ev",
            "url": "www.google.com",
            "formatted_address": "306A Canberra Road",
            "address": {"lat": 1.445376, "lng": 103.822578},
            "rating": "4.3",
            "reviews": "1000",
            "price": "$$"
        },
        {
            "name": "BlueSG (EV)",
            "description": "RENTAL",
            "type": "ev",
            "url": "www.google.com",
            "formatted_address": "576A Hougang Avenue 4",
            "address": {"lat": 1.3786, "lng": 103.885836},
            "rating": "4.3",
            "reviews": "1000",
            "price": "$$"
        },
        {
            "name": "BlueSG (EV)",
            "description": "RENTAL",
            "type": "ev",
            "url": "www.google.com",
            "formatted_address": "406A Sembawang Drive",
            "address": {"lat": 1.452323, "lng": 103.817493},
            "rating": "4.3",
            "reviews": "1000",
            "price": "$$"
        },
        {
            "name": "BlueSG (EV)",
            "description": "RENTAL",
            "type": "ev",
            "url": "www.google.com",
            "formatted_address": "31 Kelantan Lane",
            "address": {"lat": 1.306398, "lng": 103.856969},
            "rating": "4.3",
            "reviews": "1000",
            "price": "$$"
        },
        {
            "name": "BlueSG (EV)",
            "description": "RENTAL",
            "type": "ev",
            "url": "www.google.com",
            "formatted_address": "35A Marine Crescent",
            "address": {"lat": 1.303797, "lng": 103.912898},
            "rating": "4.3",
            "reviews": "1000",
            "price": "$$"
        },
        {
            "name": "BlueSG (EV)",
            "description": "RENTAL",
            "type": "ev",
            "url": "www.google.com",
            "formatted_address": "28 Dover Crescent",
            "address": {"lat": 1.304624, "lng": 103.781822},
            "rating": "4.3",
            "reviews": "1000",
            "price": "$$"
        },
        {
            "name": "BlueSG (EV)",
            "description": "RENTAL",
            "type": "ev",
            "url": "www.google.com",
            "formatted_address": "114A Lorong 3 Geylang",
            "address": {"lat": 1.3126427, "lng": 103.8742357},
            "rating": "4.3",
            "reviews": "1000",
            "price": "$$"
        },
        {
            "name": "BlueSG (EV)",
            "description": "RENTAL",
            "type": "ev",
            "url": "www.google.com",
            "formatted_address": "257A Pasir Ris Street 21",
            "address": {"lat": 1.367569, "lng": 103.963248},
            "rating": "4.3",
            "reviews": "1000",
            "price": "$$"
        },
        {
            "name": "BlueSG (EV)",
            "description": "RENTAL",
            "type": "ev",
            "url": "www.google.com",
            "formatted_address": "697 Jurong West Central 3",
            "address": {"lat": 1.341597, "lng": 103.707913},
            "rating": "4.3",
            "reviews": "1000",
            "price": "$$"
        },
        {
            "name": "BlueSG (EV)",
            "description": "RENTAL",
            "type": "ev",
            "url": "www.google.com",
            "formatted_address": "663 Punggol Drive",
            "address": {"lat": 1.399895, "lng": 103.916743},
            "rating": "4.3",
            "reviews": "1000",
            "price": "$$"
        },
        {
            "name": "BlueSG (EV)",
            "description": "RENTAL",
            "type": "ev",
            "url": "www.google.com",
            "formatted_address": "414 Fernvale Link",
            "address": {"lat": 1.390411, "lng": 103.8803},
            "rating": "4.3",
            "reviews": "1000",
            "price": "$$"
        },
        {
            "name": "BlueSG (EV)",
            "description": "RENTAL + CHARGING",
            "type": "ev",
            "url": "www.google.com",
            "formatted_address": "11 Biopolis Way",
            "address": {"lat": 1.304152, "lng": 103.791778},
            "rating": "4.3",
            "reviews": "1000",
            "price": "$$"
        },
        {
            "name": "BlueSG (EV)",
            "description": "RENTAL + CHARGING",
            "type": "ev",
            "url": "www.google.com",
            "formatted_address": "850 to 855 Yishun Ring Road",
            "address": {"lat": 1.416593, "lng": 103.836526},
            "rating": "4.3",
            "reviews": "1000",
            "price": "$$"
        },
        {
            "name": "BlueSG (EV)",
            "description": "RENTAL + CHARGING",
            "type": "ev",
            "url": "www.google.com",
            "formatted_address": "8 Haig Road",
            "address": {"lat": 1.31379, "lng": 103.896451},
            "rating": "4.3",
            "reviews": "1000",
            "price": "$$"
        },
        {
            "name": "BlueSG (EV)",
            "description": "RENTAL",
            "type": "ev",
            "url": "www.google.com",
            "formatted_address": "546A Serangoon North Avenue 3",
            "address": {"lat": 1.374037, "lng": 103.870194},
            "rating": "4.3",
            "reviews": "1000",
            "price": "$$"
        },
        {
            "name": "BlueSG (EV)",
            "description": "RENTAL",
            "type": "ev",
            "url": "www.google.com",
            "formatted_address": "181A Jelebu Road",
            "address": {"lat": 1.379109, "lng": 103.763191},
            "rating": "4.3",
            "reviews": "1000",
            "price": "$$"
        },
        {
            "name": "BlueSG (EV)",
            "description": "RENTAL",
            "type": "ev",
            "url": "www.google.com",
            "formatted_address": "788A Woodlands Crescent",
            "address": {"lat": 1.444165, "lng": 103.801834},
            "rating": "4.3",
            "reviews": "1000",
            "price": "$$"
        },
        {
            "name": "BlueSG (EV)",
            "description": "RENTAL",
            "type": "ev",
            "url": "www.google.com",
            "formatted_address": "889 Woodlands Drive 50",
            "address": {"lat": 1.437933, "lng": 103.793715},
            "rating": "4.3",
            "reviews": "1000",
            "price": "$$"
        },
        {
            "name": "BlueSG (EV)",
            "description": "RENTAL",
            "type": "ev",
            "url": "www.google.com",
            "formatted_address": "1 Cantonment Road",
            "address": {"lat": 1.277251, "lng": 103.841694},
            "rating": "4.3",
            "reviews": "1000",
            "price": "$$"
        },
        {
            "name": "BlueSG (EV)",
            "description": "RENTAL",
            "type": "ev",
            "url": "www.google.com",
            "formatted_address": "505A Woodlands Drive 14",
            "address": {"lat": 1.432081, "lng": 103.791669},
            "rating": "4.3",
            "reviews": "1000",
            "price": "$$"
        },
        {
            "name": "BlueSG (EV)",
            "description": "RENTAL",
            "type": "ev",
            "url": "www.google.com",
            "formatted_address": "686 Woodlands Drive 73",
            "address": {"lat": 1.442897, "lng": 103.806107},
            "rating": "4.3",
            "reviews": "1000",
            "price": "$$"
        },
        {
            "name": "BlueSG (EV)",
            "description": "RENTAL",
            "type": "ev",
            "url": "www.google.com",
            "formatted_address": "Blk 1/5 Delta Avenue",
            "address": {"lat": 1.292133, "lng": 103.82644},
            "rating": "4.3",
            "reviews": "1000",
            "price": "$$"
        },
        {
            "name": "BlueSG (EV)",
            "description": "RENTAL",
            "type": "ev",
            "url": "www.google.com",
            "formatted_address": "60A Geylang Bahru",
            "address": {"lat": 1.322882, "lng": 103.868614},
            "rating": "4.3",
            "reviews": "1000",
            "price": "$$"
        },
        {
            "name": "BlueSG (EV)",
            "description": "RENTAL",
            "type": "ev",
            "url": "www.google.com",
            "formatted_address": "518A Jelapang Road",
            "address": {"lat": 1.386632, "lng": 103.766896},
            "rating": "4.3",
            "reviews": "1000",
            "price": "$$"
        },
        {
            "name": "BlueSG (EV)",
            "description": "RENTAL",
            "type": "ev",
            "url": "www.google.com",
            "formatted_address": "316B Ang Mo Kio Street 31",
            "address": {"lat": 1.364667, "lng": 103.847667},
            "rating": "4.3",
            "reviews": "1000",
            "price": "$$"
        },
        {
            "name": "BlueSG (EV)",
            "description": "RENTAL",
            "type": "ev",
            "url": "www.google.com",
            "formatted_address": "676 Punggol Drive",
            "address": {"lat": 1.405261, "lng": 103.91019},
            "rating": "4.3",
            "reviews": "1000",
            "price": "$$"
        },
        {
            "name": "BlueSG (EV)",
            "description": "RENTAL",
            "type": "ev",
            "url": "www.google.com",
            "formatted_address": "17 Circuit Road",
            "address": {"lat": 1.329583, "lng": 103.888298},
            "rating": "4.3",
            "reviews": "1000",
            "price": "$$"
        },
        {
            "name": "BlueSG (EV)",
            "description": "RENTAL + CHARGING",
            "type": "ev",
            "url": "www.google.com",
            "formatted_address": "Blk 602 Clementi West Street 1",
            "address": {"lat": 1.304373, "lng": 103.766838},
            "rating": "4.3",
            "reviews": "1000",
            "price": "$$"
        },
        {
            "name": "BlueSG (EV)",
            "description": "RENTAL",
            "type": "ev",
            "url": "www.google.com",
            "formatted_address": "65A Marine Drive",
            "address": {"lat": 1.302872, "lng": 103.90992},
            "rating": "4.3",
            "reviews": "1000",
            "price": "$$"
        },
        {
            "name": "BlueSG (EV)",
            "description": "RENTAL + CHARGING",
            "type": "ev",
            "url": "www.google.com",
            "formatted_address": "188 Boon Lay Drive",
            "address": {"lat": 1.344062, "lng": 103.711245},
            "rating": "4.3",
            "reviews": "1000",
            "price": "$$"
        },
        {
            "name": "BlueSG (EV)",
            "description": "RENTAL",
            "type": "ev",
            "url": "www.google.com",
            "formatted_address": "414 Pandan Gardens",
            "address": {"lat": 1.319852, "lng": 103.747609},
            "rating": "4.3",
            "reviews": "1000",
            "price": "$$"
        },
        {
            "name": "BlueSG (EV)",
            "description": "RENTAL",
            "type": "ev",
            "url": "www.google.com",
            "formatted_address": "Blk 1/19 Toh Yi Drive",
            "address": {"lat": 1.338165, "lng": 103.775112},
            "rating": "4.3",
            "reviews": "1000",
            "price": "$$"
        },
        {
            "name": "BlueSG (EV)",
            "description": "RENTAL",
            "type": "ev",
            "url": "www.google.com",
            "formatted_address": "436 Hougang Avenue 8",
            "address": {"lat": 1.377398, "lng": 103.8939},
            "rating": "4.3",
            "reviews": "1000",
            "price": "$$"
        },
        {
            "name": "BlueSG (EV)",
            "description": "RENTAL",
            "type": "ev",
            "url": "www.google.com",
            "formatted_address": "486A Choa Chu Kang Avenue 5",
            "address": {"lat": 1.375141, "lng": 103.73838},
            "rating": "4.3",
            "reviews": "1000",
            "price": "$$"
        },
        {
            "name": "BlueSG (EV)",
            "description": "RENTAL + CHARGING",
            "type": "ev",
            "url": "www.google.com",
            "formatted_address": "37 Chai Chee Avenue",
            "address": {"lat": 1.325325, "lng": 103.925817},
            "rating": "4.3",
            "reviews": "1000",
            "price": "$$"
        },
        {
            "name": "BlueSG (EV)",
            "description": "RENTAL + CHARGING",
            "type": "ev",
            "url": "www.google.com",
            "formatted_address": "Blk 272/275 Tampines Street 22",
            "address": {"lat": 1.348438, "lng": 103.950524},
            "rating": "4.3",
            "reviews": "1000",
            "price": "$$"
        },
        {
            "name": "BlueSG (EV)",
            "description": "RENTAL",
            "type": "ev",
            "url": "www.google.com",
            "formatted_address": "73 Geylang Bahru",
            "address": {"lat": 1.322514, "lng": 103.870862},
            "rating": "4.3",
            "reviews": "1000",
            "price": "$$"
        },
        {
            "name": "BlueSG (EV)",
            "description": "RENTAL",
            "type": "ev",
            "url": "www.google.com",
            "formatted_address": "28 Jalan Bukit Merah",
            "address": {"lat": 1.28625, "lng": 103.809979},
            "rating": "4.3",
            "reviews": "1000",
            "price": "$$"
        },
        {
            "name": "BlueSG (EV)",
            "description": "RENTAL",
            "type": "ev",
            "url": "www.google.com",
            "formatted_address": "501 West Coast Drive",
            "address": {"lat": 1.311329, "lng": 103.75908},
            "rating": "4.3",
            "reviews": "1000",
            "price": "$$"
        },
        {
            "name": "BlueSG (EV)",
            "description": "RENTAL",
            "type": "ev",
            "url": "www.google.com",
            "formatted_address": "110 Teck Whye Lane",
            "address": {"lat": 1.378033, "lng": 103.75166},
            "rating": "4.3",
            "reviews": "1000",
            "price": "$$"
        },
        {
            "name": "BlueSG (EV)",
            "description": "RENTAL",
            "type": "ev",
            "url": "www.google.com",
            "formatted_address": "670 Edgefield Plains",
            "address": {"lat": 1.405832, "lng": 103.913198},
            "rating": "4.3",
            "reviews": "1000",
            "price": "$$"
        },
        {
            "name": "BlueSG (EV)",
            "description": "RENTAL",
            "type": "ev",
            "url": "www.google.com",
            "formatted_address": "34A Marsiling Drive",
            "address": {"lat": 1.444603, "lng": 103.772238},
            "rating": "4.3",
            "reviews": "1000",
            "price": "$$"
        },
        {
            "name": "BlueSG (EV)",
            "description": "RENTAL",
            "type": "ev",
            "url": "www.google.com",
            "formatted_address": "709A Woodlands Drive 70",
            "address": {"lat": 1.441065, "lng": 103.798087},
            "rating": "4.3",
            "reviews": "1000",
            "price": "$$"
        },
        {
            "name": "BlueSG (EV)",
            "description": "RENTAL",
            "type": "ev",
            "url": "www.google.com",
            "formatted_address": "636 Senja Road",
            "address": {"lat": 1.38713, "lng": 103.758408},
            "rating": "4.3",
            "reviews": "1000",
            "price": "$$"
        },
        {
            "name": "BlueSG (EV)",
            "description": "RENTAL",
            "type": "ev",
            "url": "www.google.com",
            "formatted_address": "119 Bukit Merah Central",
            "address": {"lat": 1.282586, "lng": 103.816794},
            "rating": "4.3",
            "reviews": "1000",
            "price": "$$"
        },
        {
            "name": "BlueSG (EV)",
            "description": "RENTAL",
            "type": "ev",
            "url": "www.google.com",
            "formatted_address": "540/546 Ang Mo Kio Avenue 10",
            "address": {"lat": 1.373765, "lng": 103.856048},
            "rating": "4.3",
            "reviews": "1000",
            "price": "$$"
        },
        {
            "name": "BlueSG (EV)",
            "description": "RENTAL + CHARGING",
            "type": "ev",
            "url": "www.google.com",
            "formatted_address": "129A Bukit Merah View",
            "address": {"lat": 1.283532, "lng": 103.823372},
            "rating": "4.3",
            "reviews": "1000",
            "price": "$$"
        },
        {
            "name": "BlueSG (EV)",
            "description": "RENTAL",
            "type": "ev",
            "url": "www.google.com",
            "formatted_address": "285E Toh Guan Road",
            "address": {"lat": 1.337589, "lng": 103.746921},
            "rating": "4.3",
            "reviews": "1000",
            "price": "$$"
        },
        {
            "name": "BlueSG (EV)",
            "description": "RENTAL",
            "type": "ev",
            "url": "www.google.com",
            "formatted_address": "8 Upper Boon Keng Road",
            "address": {"lat": 1.313359, "lng": 103.870666},
            "rating": "4.3",
            "reviews": "1000",
            "price": "$$"
        },
        {
            "name": "BlueSG (EV)",
            "description": "RENTAL",
            "type": "ev",
            "url": "www.google.com",
            "formatted_address": "202A Tampines Street 21",
            "address": {"lat": 1.353352, "lng": 103.952211},
            "rating": "4.3",
            "reviews": "1000",
            "price": "$$"
        },
        {
            "name": "BlueSG (EV)",
            "description": "RENTAL",
            "type": "ev",
            "url": "www.google.com",
            "formatted_address": "39 Bendemeer Road",
            "address": {"lat": 1.320808, "lng": 103.866182},
            "rating": "4.3",
            "reviews": "1000",
            "price": "$$"
        },
        {
            "name": "BlueSG (EV)",
            "description": "RENTAL",
            "type": "ev",
            "url": "www.google.com",
            "formatted_address": "747A Pasir Ris Street 71",
            "address": {"lat": 1.378748, "lng": 103.934078},
            "rating": "4.3",
            "reviews": "1000",
            "price": "$$"
        },
        {
            "name": "BlueSG (EV)",
            "description": "RENTAL + CHARGING",
            "type": "ev",
            "url": "www.google.com",
            "formatted_address": "4 Queen's Road",
            "address": {"lat": 1.318738, "lng": 103.808169},
            "rating": "4.3",
            "reviews": "1000",
            "price": "$$"
        },
        {
            "name": "BlueSG (EV)",
            "description": "RENTAL",
            "type": "ev",
            "url": "www.google.com",
            "formatted_address": "56A Cassia Crescent",
            "address": {"lat": 1.310085, "lng": 103.88389},
            "rating": "4.3",
            "reviews": "1000",
            "price": "$$"
        },
        {
            "name": "BlueSG (EV)",
            "description": "RENTAL",
            "type": "ev",
            "url": "www.google.com",
            "formatted_address": "292 Bukit Batok East Avenue 6",
            "address": {"lat": 1.344479, "lng": 103.755356},
            "rating": "4.3",
            "reviews": "1000",
            "price": "$$"
        },
        {
            "name": "BlueSG (EV)",
            "description": "RENTAL",
            "type": "ev",
            "url": "www.google.com",
            "formatted_address": "126 Kim Tian Road",
            "address": {"lat": 1.282619, "lng": 103.829378},
            "rating": "4.3",
            "reviews": "1000",
            "price": "$$"
        },
        {
            "name": "BlueSG (EV)",
            "description": "RENTAL",
            "type": "ev",
            "url": "www.google.com",
            "formatted_address": "51 Havelock Road",
            "address": {"lat": 1.290048, "lng": 103.827468},
            "rating": "4.3",
            "reviews": "1000",
            "price": "$$"
        },
        {
            "name": "BlueSG (EV)",
            "description": "RENTAL + CHARGING",
            "type": "ev",
            "url": "www.google.com",
            "formatted_address": "Blk 685/691 Hougang Street 61",
            "address": {"lat": 1.37595, "lng": 103.885492},
            "rating": "4.3",
            "reviews": "1000",
            "price": "$$"
        },
        {
            "name": "BlueSG (EV)",
            "description": "RENTAL + CHARGING",
            "type": "ev",
            "url": "www.google.com",
            "formatted_address": "773 Yishun Avenue 3",
            "address": {"lat": 1.424284, "lng": 103.833346},
            "rating": "4.3",
            "reviews": "1000",
            "price": "$$"
        },
        {
            "name": "BlueSG (EV)",
            "description": "RENTAL",
            "type": "ev",
            "url": "www.google.com",
            "formatted_address": "301/309 Bukit Batok Street 31",
            "address": {"lat": 1.358056, "lng": 103.748348},
            "rating": "4.3",
            "reviews": "1000",
            "price": "$$"
        },
        {
            "name": "BlueSG (EV)",
            "description": "RENTAL",
            "type": "ev",
            "url": "www.google.com",
            "formatted_address": "70 Telok Blangah Heights",
            "address": {"lat": 1.276491, "lng": 103.810936},
            "rating": "4.3",
            "reviews": "1000",
            "price": "$$"
        },
        {
            "name": "BlueSG (EV)",
            "description": "RENTAL",
            "type": "ev",
            "url": "www.google.com",
            "formatted_address": "650 Punggol Central",
            "address": {"lat": 1.39716, "lng": 103.9151},
            "rating": "4.3",
            "reviews": "1000",
            "price": "$$"
        },
        {
            "name": "BlueSG (EV)",
            "description": "RENTAL",
            "type": "ev",
            "url": "www.google.com",
            "formatted_address": "221/235 Simei Street 4",
            "address": {"lat": 1.344043, "lng": 103.956347},
            "rating": "4.3",
            "reviews": "1000",
            "price": "$$"
        },
        {
            "name": "BlueSG (EV)",
            "description": "RENTAL",
            "type": "ev",
            "url": "www.google.com",
            "formatted_address": "823A Tampines Street 81",
            "address": {"lat": 1.348868, "lng": 103.933418},
            "rating": "4.3",
            "reviews": "1000",
            "price": "$$"
        },
        {
            "name": "BlueSG (EV)",
            "description": "RENTAL",
            "type": "ev",
            "url": "www.google.com",
            "formatted_address": "268 Boon Lay Drive",
            "address": {"lat": 1.348048, "lng": 103.707724},
            "rating": "4.3",
            "reviews": "1000",
            "price": "$$"
        },
        {
            "name": "BlueSG (EV)",
            "description": "RENTAL",
            "type": "ev",
            "url": "www.google.com",
            "formatted_address": "132 Yishun Street 11",
            "address": {"lat": 1.432989, "lng": 103.831866},
            "rating": "4.3",
            "reviews": "1000",
            "price": "$$"
        },
        {
            "name": "BlueSG (EV)",
            "description": "RENTAL",
            "type": "ev",
            "url": "www.google.com",
            "formatted_address": "530 Pasir Ris Drive 1",
            "address": {"lat": 1.371297, "lng": 103.949451},
            "rating": "4.3",
            "reviews": "1000",
            "price": "$$"
        },
        {
            "name": "BlueSG (EV)",
            "description": "RENTAL",
            "type": "ev",
            "url": "www.google.com",
            "formatted_address": "541A Bukit Panjang Ring Road",
            "address": {"lat": 1.382666, "lng": 103.76305},
            "rating": "4.3",
            "reviews": "1000",
            "price": "$$"
        },
        {
            "name": "BlueSG (EV)",
            "description": "RENTAL",
            "type": "ev",
            "url": "www.google.com",
            "formatted_address": "124 Bedok North Street 2",
            "address": {"lat": 1.327761, "lng": 103.93846},
            "rating": "4.3",
            "reviews": "1000",
            "price": "$$"
        },
        {
            "name": "BlueSG (EV)",
            "description": "RENTAL + CHARGING",
            "type": "ev",
            "url": "www.google.com",
            "formatted_address": "800-812 Yishun Ring Road",
            "address": {"lat": 1.416833, "lng": 103.83048},
            "rating": "4.3",
            "reviews": "1000",
            "price": "$$"
        },
        {
            "name": "BlueSG (EV)",
            "description": "RENTAL",
            "type": "ev",
            "url": "www.google.com",
            "formatted_address": "142A Pasir Ris Street 11",
            "address": {"lat": 1.362877, "lng": 103.959842},
            "rating": "4.3",
            "reviews": "1000",
            "price": "$$"
        },
        {
            "name": "BlueSG (EV)",
            "description": "RENTAL",
            "type": "ev",
            "url": "www.google.com",
            "formatted_address": "807 Chai Chee Road",
            "address": {"lat": 1.327365, "lng": 103.922862},
            "rating": "4.3",
            "reviews": "1000",
            "price": "$$"
        },
        {
            "name": "BlueSG (EV)",
            "description": "RENTAL",
            "type": "ev",
            "url": "www.google.com",
            "formatted_address": "119 Edgefield Plains",
            "address": {"lat": 1.395461, "lng": 103.906424},
            "rating": "4.3",
            "reviews": "1000",
            "price": "$$"
        },
        {
            "name": "BlueSG (EV)",
            "description": "RENTAL",
            "type": "ev",
            "url": "www.google.com",
            "formatted_address": "68 Orchard Road",
            "address": {"lat": 1.300802, "lng": 103.845078},
            "rating": "4.3",
            "reviews": "1000",
            "price": "$$"
        },
        {
            "name": "BlueSG (EV)",
            "description": "RENTAL",
            "type": "ev",
            "url": "www.google.com",
            "formatted_address": "730A Tampines Street 71",
            "address": {"lat": 1.357569, "lng": 103.933658},
            "rating": "4.3",
            "reviews": "1000",
            "price": "$$"
        },
        {
            "name": "BlueSG (EV)",
            "description": "RENTAL",
            "type": "ev",
            "url": "www.google.com",
            "formatted_address": "440 Bukit Batok West Avenue 8",
            "address": {"lat": 1.355694, "lng": 103.739325},
            "rating": "4.3",
            "reviews": "1000",
            "price": "$$"
        },
        {
            "name": "BlueSG (EV)",
            "description": "RENTAL",
            "type": "ev",
            "url": "www.google.com",
            "formatted_address": "14A Farrer Park Road",
            "address": {"lat": 1.312025, "lng": 103.85209},
            "rating": "4.3",
            "reviews": "1000",
            "price": "$$"
        },
        {
            "name": "BlueSG (EV)",
            "description": "RENTAL",
            "type": "ev",
            "url": "www.google.com",
            "formatted_address": "986 Jurong West Street 93",
            "address": {"lat": 1.337105, "lng": 103.694607},
            "rating": "4.3",
            "reviews": "1000",
            "price": "$$"
        },
        {
            "name": "BlueSG (EV)",
            "description": "RENTAL",
            "type": "ev",
            "url": "www.google.com",
            "formatted_address": "473A Pasir Ris Drive 6",
            "address": {"lat": 1.374253, "lng": 103.956593},
            "rating": "4.3",
            "reviews": "1000",
            "price": "$$"
        },
        {
            "name": "BlueSG (EV)",
            "description": "RENTAL + CHARGING",
            "type": "ev",
            "url": "www.google.com",
            "formatted_address": "31A Eunos Crescent",
            "address": {"lat": 1.320225, "lng": 103.9017609},
            "rating": "4.3",
            "reviews": "1000",
            "price": "$$"
        },
        {
            "name": "BlueSG (EV)",
            "description": "RENTAL",
            "type": "ev",
            "url": "www.google.com",
            "formatted_address": "Blk 609-621 Hougang Avenue 8",
            "address": {"lat": 1.369879, "lng": 103.884244},
            "rating": "4.3",
            "reviews": "1000",
            "price": "$$"
        },
        {
            "name": "BlueSG (EV)",
            "description": "RENTAL + CHARGING",
            "type": "ev",
            "url": "www.google.com",
            "formatted_address": "704-714 West Coast Road",
            "address": {"lat": 1.306052, "lng": 103.761812},
            "rating": "4.3",
            "reviews": "1000",
            "price": "$$"
        },
        {
            "name": "BlueSG (EV)",
            "description": "RENTAL",
            "type": "ev",
            "url": "www.google.com",
            "formatted_address": "12 Eunos Crescent",
            "address": {"lat": 1.322604, "lng": 103.905011},
            "rating": "4.3",
            "reviews": "1000",
            "price": "$$"
        },
        {
            "name": "BlueSG (EV)",
            "description": "RENTAL + CHARGING",
            "type": "ev",
            "url": "www.google.com",
            "formatted_address": "69 Bedok South Avenue 3",
            "address": {"lat": 1.319455, "lng": 103.943098},
            "rating": "4.3",
            "reviews": "1000",
            "price": "$$"
        },
        {
            "name": "BlueSG (EV)",
            "description": "RENTAL",
            "type": "ev",
            "url": "www.google.com",
            "formatted_address": "3 Jalan Ampas",
            "address": {"lat": 1.325382, "lng": 103.850772},
            "rating": "4.3",
            "reviews": "1000",
            "price": "$$"
        },
        {
            "name": "BlueSG (EV)",
            "description": "RENTAL",
            "type": "ev",
            "url": "www.google.com",
            "formatted_address": "1 Tampines Walk",
            "address": {"lat": 1.353227, "lng": 103.940773},
            "rating": "4.3",
            "reviews": "1000",
            "price": "$$"
        },
        {
            "name": "BlueSG (EV)",
            "description": "RENTAL + CHARGING",
            "type": "ev",
            "url": "www.google.com",
            "formatted_address": "21 Choa Chu Kang Avenue 4",
            "address": {"lat": 1.38525, "lng": 103.744922},
            "rating": "4.3",
            "reviews": "1000",
            "price": "$$"
        },
        {
            "name": "BlueSG (EV)",
            "description": "RENTAL + CHARGING",
            "type": "ev",
            "url": "www.google.com",
            "formatted_address": "21 Jalan Masjid",
            "address": {"lat": 1.320397, "lng": 103.912296},
            "rating": "4.3",
            "reviews": "1000",
            "price": "$$"
        },
        {
            "name": "BlueSG (EV)",
            "description": "RENTAL",
            "type": "ev",
            "url": "www.google.com",
            "formatted_address": "160 Rivervale Crescent",
            "address": {"lat": 1.387305, "lng": 103.90765},
            "rating": "4.3",
            "reviews": "1000",
            "price": "$$"
        },
        {
            "name": "BlueSG (EV)",
            "description": "RENTAL",
            "type": "ev",
            "url": "www.google.com",
            "formatted_address": "4 Tampines Central 5",
            "address": {"lat": 1.352467, "lng": 103.945251},
            "rating": "4.3",
            "reviews": "1000",
            "price": "$$"
        },
        {
            "name": "BlueSG (EV)",
            "description": "RENTAL",
            "type": "ev",
            "url": "www.google.com",
            "formatted_address": "139 Tembeling Road",
            "address": {"lat": 1.310655, "lng": 103.902756},
            "rating": "4.3",
            "reviews": "1000",
            "price": "$$"
        },
        {
            "name": "BlueSG (EV)",
            "description": "RENTAL",
            "type": "ev",
            "url": "www.google.com",
            "formatted_address": "404A Bukit Batok West Avenue 7",
            "address": {"lat": 1.365462, "lng": 103.745317},
            "rating": "4.3",
            "reviews": "1000",
            "price": "$$"
        },
        {
            "name": "BlueSG (EV)",
            "description": "RENTAL",
            "type": "ev",
            "url": "www.google.com",
            "formatted_address": "364 Upper Serangoon Road",
            "address": {"lat": 1.370671, "lng": 103.896745},
            "rating": "4.3",
            "reviews": "1000",
            "price": "$$"
        },
        {
            "name": "BlueSG (EV)",
            "description": "RENTAL",
            "type": "ev",
            "url": "www.google.com",
            "formatted_address": "376 Hougang Street 32",
            "address": {"lat": 1.36371, "lng": 103.89408},
            "rating": "4.3",
            "reviews": "1000",
            "price": "$$"
        },
        {
            "name": "BlueSG (EV)",
            "description": "RENTAL",
            "type": "ev",
            "url": "www.google.com",
            "formatted_address": "739A Bedok Reservoir Road",
            "address": {"lat": 1.338203, "lng": 103.923594},
            "rating": "4.3",
            "reviews": "1000",
            "price": "$$"
        },
        {
            "name": "BlueSG (EV)",
            "description": "RENTAL + CHARGING",
            "type": "ev",
            "url": "www.google.com",
            "formatted_address": "537 Bukit Batok Street 52",
            "address": {"lat": 1.355013, "lng": 103.751187},
            "rating": "4.3",
            "reviews": "1000",
            "price": "$$"
        },
        {
            "name": "BlueSG (EV)",
            "description": "RENTAL",
            "type": "ev",
            "url": "www.google.com",
            "formatted_address": "512-518 Bedok North Avenue 2",
            "address": {"lat": 1.332295, "lng": 103.929747},
            "rating": "4.3",
            "reviews": "1000",
            "price": "$$"
        },
        {
            "name": "BlueSG (EV)",
            "description": "RENTAL + CHARGING",
            "type": "ev",
            "url": "www.google.com",
            "formatted_address": "8 Jurong Town Hall Road",
            "address": {"lat": 1.33115, "lng": 103.74184},
            "rating": "4.3",
            "reviews": "1000",
            "price": "$$"
        },
        {
            "name": "BlueSG (EV)",
            "description": "RENTAL",
            "type": "ev",
            "url": "www.google.com",
            "formatted_address": "159A Hougang Street 11",
            "address": {"lat": 1.351926, "lng": 103.879594},
            "rating": "4.3",
            "reviews": "1000",
            "price": "$$"
        },
        {
            "name": "BlueSG (EV)",
            "description": "RENTAL + CHARGING",
            "type": "ev",
            "url": "www.google.com",
            "formatted_address": "627 Ang Mo Kio Avenue 9",
            "address": {"lat": 1.382052, "lng": 103.841393},
            "rating": "4.3",
            "reviews": "1000",
            "price": "$$"
        },
        {
            "name": "BlueSG (EV)",
            "description": "RENTAL + CHARGING",
            "type": "ev",
            "url": "www.google.com",
            "formatted_address": "273 Punggol Place",
            "address": {"lat": 1.402703, "lng": 103.901963},
            "rating": "4.3",
            "reviews": "1000",
            "price": "$$"
        },
        {
            "name": "BlueSG (EV)",
            "description": "RENTAL",
            "type": "ev",
            "url": "www.google.com",
            "formatted_address": "109-127 Hougang Avenue 1",
            "address": {"lat": 1.353316, "lng": 103.887365},
            "rating": "4.3",
            "reviews": "1000",
            "price": "$$"
        },
        {
            "name": "BlueSG (EV)",
            "description": "RENTAL",
            "type": "ev",
            "url": "www.google.com",
            "formatted_address": "141A Lorong 2 Toa Payoh",
            "address": {"lat": 1.335211, "lng": 103.84559},
            "rating": "4.3",
            "reviews": "1000",
            "price": "$$"
        },
        {
            "name": "BlueSG (EV)",
            "description": "RENTAL + CHARGING",
            "type": "ev",
            "url": "www.google.com",
            "formatted_address": "215-230 Jurong East Street 21",
            "address": {"lat": 1.341813, "lng": 103.737565},
            "rating": "4.3",
            "reviews": "1000",
            "price": "$$"
        },
        {
            "name": "BlueSG (EV)",
            "description": "RENTAL + CHARGING",
            "type": "ev",
            "url": "www.google.com",
            "formatted_address": "921A Tampines Street 91",
            "address": {"lat": 1.347284, "lng": 103.941371},
            "rating": "4.3",
            "reviews": "1000",
            "price": "$$"
        },
        {
            "name": "BlueSG (EV)",
            "description": "RENTAL",
            "type": "ev",
            "url": "www.google.com",
            "formatted_address": "748 Bedok Reservoir Crescent",
            "address": {"lat": 1.336105, "lng": 103.921843},
            "rating": "4.3",
            "reviews": "1000",
            "price": "$$"
        },
        {
            "name": "BlueSG (EV)",
            "description": "RENTAL + CHARGING",
            "type": "ev",
            "url": "www.google.com",
            "formatted_address": "123 Ang Mo Kio Avenue 6",
            "address": {"lat": 1.370392, "lng": 103.844376},
            "rating": "4.3",
            "reviews": "1000",
            "price": "$$"
        },
        {
            "name": "BlueSG (EV)",
            "description": "RENTAL",
            "type": "ev",
            "url": "www.google.com",
            "formatted_address": "161A Mei Ling Street",
            "address": {"lat": 1.292196, "lng": 103.80346},
            "rating": "4.3",
            "reviews": "1000",
            "price": "$$"
        },
        {
            "name": "BlueSG (EV)",
            "description": "RENTAL",
            "type": "ev",
            "url": "www.google.com",
            "formatted_address": "626A Woodlands Drive 52",
            "address": {"lat": 1.434112, "lng": 103.800276},
            "rating": "4.3",
            "reviews": "1000",
            "price": "$$"
        },
        {
            "name": "BlueSG (EV)",
            "description": "RENTAL",
            "type": "ev",
            "url": "www.google.com",
            "formatted_address": "613C Bedok Reservoir Road",
            "address": {"lat": 1.333199, "lng": 103.917575},
            "rating": "4.3",
            "reviews": "1000",
            "price": "$$"
        },
        {
            "name": "BlueSG (EV)",
            "description": "RENTAL + CHARGING",
            "type": "ev",
            "url": "www.google.com",
            "formatted_address": "334 Clementi Avenue 2",
            "address": {"lat": 1.314724, "lng": 103.768296},
            "rating": "4.3",
            "reviews": "1000",
            "price": "$$"
        },
        {
            "name": "BlueSG (EV)",
            "description": "RENTAL + CHARGING",
            "type": "ev",
            "url": "www.google.com",
            "formatted_address": "854A Jurong West Street 81",
            "address": {"lat": 1.347775, "lng": 103.696495},
            "rating": "4.3",
            "reviews": "1000",
            "price": "$$"
        },
        {
            "name": "BlueSG (EV)",
            "description": "RENTAL",
            "type": "ev",
            "url": "www.google.com",
            "formatted_address": "104C Depot Road",
            "address": {"lat": 1.280624, "lng": 103.811561},
            "rating": "4.3",
            "reviews": "1000",
            "price": "$$"
        },
        {
            "name": "BlueSG (EV)",
            "description": "RENTAL + CHARGING",
            "type": "ev",
            "url": "www.google.com",
            "formatted_address": "346 Bukit Batok Street 34",
            "address": {"lat": 1.362466, "lng": 103.750963},
            "rating": "4.3",
            "reviews": "1000",
            "price": "$$"
        },
        {
            "name": "BlueSG (EV)",
            "description": "RENTAL + CHARGING",
            "type": "ev",
            "url": "www.google.com",
            "formatted_address": "851 Tampines Street 83",
            "address": {"lat": 1.353051, "lng": 103.935061},
            "rating": "4.3",
            "reviews": "1000",
            "price": "$$"
        },
        {
            "name": "BlueSG (EV)",
            "description": "RENTAL",
            "type": "ev",
            "url": "www.google.com",
            "formatted_address": "59 Marine Terrace",
            "address": {"lat": 1.305782, "lng": 103.914158},
            "rating": "4.3",
            "reviews": "1000",
            "price": "$$"
        },
        {
            "name": "BlueSG (EV)",
            "description": "RENTAL",
            "type": "ev",
            "url": "www.google.com",
            "formatted_address": "3 Gateway Drive",
            "address": {"lat": 1.33428, "lng": 103.742856},
            "rating": "4.3",
            "reviews": "1000",
            "price": "$$"
        },
        {
            "name": "BlueSG (EV)",
            "description": "RENTAL",
            "type": "ev",
            "url": "www.google.com",
            "formatted_address": "113 McNair Road",
            "address": {"lat": 1.321472, "lng": 103.859992},
            "rating": "4.3",
            "reviews": "1000",
            "price": "$$"
        },
        {
            "name": "BlueSG (EV)",
            "description": "RENTAL + CHARGING",
            "type": "ev",
            "url": "www.google.com",
            "formatted_address": "476 Upper Serangoon View",
            "address": {"lat": 1.37738, "lng": 103.903721},
            "rating": "4.3",
            "reviews": "1000",
            "price": "$$"
        },
        {
            "name": "BlueSG (EV)",
            "description": "RENTAL",
            "type": "ev",
            "url": "www.google.com",
            "formatted_address": "347 Yishun Avenue 11",
            "address": {"lat": 1.427679, "lng": 103.842979},
            "rating": "4.3",
            "reviews": "1000",
            "price": "$$"
        },
        {
            "name": "BlueSG (EV)",
            "description": "RENTAL + CHARGING",
            "type": "ev",
            "url": "www.google.com",
            "formatted_address": "50 Beach View",
            "address": {"lat": 1.251171, "lng": 103.819188},
            "rating": "4.3",
            "reviews": "1000",
            "price": "$$"
        },
        {
            "name": "BlueSG (EV)",
            "description": "RENTAL + CHARGING",
            "type": "ev",
            "url": "www.google.com",
            "formatted_address": "186 Bishan Street 13",
            "address": {"lat": 1.349585, "lng": 103.852838},
            "rating": "4.3",
            "reviews": "1000",
            "price": "$$"
        },
        {
            "name": "BlueSG (EV)",
            "description": "RENTAL + CHARGING",
            "type": "ev",
            "url": "www.google.com",
            "formatted_address": "326 Ubi Avenue 1",
            "address": {"lat": 1.327319, "lng": 103.904146},
            "rating": "4.3",
            "reviews": "1000",
            "price": "$$"
        },
        {
            "name": "BlueSG (EV)",
            "description": "RENTAL + CHARGING",
            "type": "ev",
            "url": "www.google.com",
            "formatted_address": "52 Sims Place",
            "address": {"lat": 1.316531, "lng": 103.880106},
            "rating": "4.3",
            "reviews": "1000",
            "price": "$$"
        },
        {
            "name": "BlueSG (EV)",
            "description": "RENTAL + CHARGING",
            "type": "ev",
            "url": "www.google.com",
            "formatted_address": "Across 343 Telok Kurau Road",
            "address": {"lat": 1.308605, "lng": 103.912432},
            "rating": "4.3",
            "reviews": "1000",
            "price": "$$"
        },
        {
            "name": "BlueSG (EV)",
            "description": "RENTAL",
            "type": "ev",
            "url": "www.google.com",
            "formatted_address": "271 Jurong West Street 24",
            "address": {"lat": 1.3508141, "lng": 103.7040753},
            "rating": "4.3",
            "reviews": "1000",
            "price": "$$"
        },
        {
            "name": "BlueSG (EV)",
            "description": "RENTAL",
            "type": "ev",
            "url": "www.google.com",
            "formatted_address": "233 Sumang Lane",
            "address": {"lat": 1.401304, "lng": 103.891288},
            "rating": "4.3",
            "reviews": "1000",
            "price": "$$"
        },
        {
            "name": "BlueSG (EV)",
            "description": "RENTAL",
            "type": "ev",
            "url": "www.google.com",
            "formatted_address": "734A Jurong West Street 73",
            "address": {"lat": 1.345607, "lng": 103.700915},
            "rating": "4.3",
            "reviews": "1000",
            "price": "$$"
        },
        {
            "name": "BlueSG (EV)",
            "description": "RENTAL",
            "type": "ev",
            "url": "www.google.com",
            "formatted_address": "260 Kim Keat Avenue",
            "address": {"lat": 1.332086, "lng": 103.857486},
            "rating": "4.3",
            "reviews": "1000",
            "price": "$$"
        },
        {
            "name": "BlueSG (EV)",
            "description": "RENTAL",
            "type": "ev",
            "url": "www.google.com",
            "formatted_address": "693 Woodlands Avenue 6",
            "address": {"lat": 1.438091, "lng": 103.803754},
            "rating": "4.3",
            "reviews": "1000",
            "price": "$$"
        },
        {
            "name": "BlueSG (EV)",
            "description": "RENTAL",
            "type": "ev",
            "url": "www.google.com",
            "formatted_address": "892C Woodlands Drive 50",
            "address": {"lat": 1.436824, "lng": 103.78945},
            "rating": "4.3",
            "reviews": "1000",
            "price": "$$"
        },
        {
            "name": "BlueSG (EV)",
            "description": "RENTAL",
            "type": "ev",
            "url": "www.google.com",
            "formatted_address": "109 North Bridge Road",
            "address": {"lat": 1.291599, "lng": 103.849823},
            "rating": "4.3",
            "reviews": "1000",
            "price": "$$"
        },
        {
            "name": "BlueSG (EV)",
            "description": "RENTAL",
            "type": "ev",
            "url": "www.google.com",
            "formatted_address": "684 Jurong West Street 64",
            "address": {"lat": 1.344321, "lng": 103.703856},
            "rating": "4.3",
            "reviews": "1000",
            "price": "$$"
        },
        {
            "name": "BlueSG (EV)",
            "description": "RENTAL + CHARGING",
            "type": "ev",
            "url": "www.google.com",
            "formatted_address": "941A Hougang Street 92",
            "address": {"lat": 1.374287, "lng": 103.87912},
            "rating": "4.3",
            "reviews": "1000",
            "price": "$$"
        },
        {
            "name": "BlueSG (EV)",
            "description": "RENTAL + CHARGING",
            "type": "ev",
            "url": "www.google.com",
            "formatted_address": "903 Jurong West Street 91",
            "address": {"lat": 1.339625, "lng": 103.686256},
            "rating": "4.3",
            "reviews": "1000",
            "price": "$$"
        },
        {
            "name": "BlueSG (EV)",
            "description": "RENTAL + CHARGING",
            "type": "ev",
            "url": "www.google.com",
            "formatted_address": "117 Potong Pasir Avenue 1",
            "address": {"lat": 1.336558, "lng": 103.863104},
            "rating": "4.3",
            "reviews": "1000",
            "price": "$$"
        },
        {
            "name": "BlueSG (EV)",
            "description": "RENTAL",
            "type": "ev",
            "url": "www.google.com",
            "formatted_address": "773A Pasir Ris Street 71",
            "address": {"lat": 1.374638, "lng": 103.935842},
            "rating": "4.3",
            "reviews": "1000",
            "price": "$$"
        },
        {
            "name": "BlueSG (EV)",
            "description": "RENTAL",
            "type": "ev",
            "url": "www.google.com",
            "formatted_address": "785 Woodlands Rise",
            "address": {"lat": 1.447049, "lng": 103.805007},
            "rating": "4.3",
            "reviews": "1000",
            "price": "$$"
        },
        {
            "name": "BlueSG (EV)",
            "description": "RENTAL",
            "type": "ev",
            "url": "www.google.com",
            "formatted_address": "231A Pasir Ris Drive 4",
            "address": {"lat": 1.374171, "lng": 103.961435},
            "rating": "4.3",
            "reviews": "1000",
            "price": "$$"
        },
        {
            "name": "BlueSG (EV)",
            "description": "RENTAL",
            "type": "ev",
            "url": "www.google.com",
            "formatted_address": "346A Kang Ching Road",
            "address": {"lat": 1.340133, "lng": 103.720221},
            "rating": "4.3",
            "reviews": "1000",
            "price": "$$"
        },
        {
            "name": "BlueSG (EV)",
            "description": "RENTAL",
            "type": "ev",
            "url": "www.google.com",
            "formatted_address": "676 Yishun Ring Road",
            "address": {"lat": 1.421641, "lng": 103.841868},
            "rating": "4.3",
            "reviews": "1000",
            "price": "$$"
        },
        {
            "name": "BlueSG (EV)",
            "description": "RENTAL",
            "type": "ev",
            "url": "www.google.com",
            "formatted_address": "501 Yishun Street 51",
            "address": {"lat": 1.416572, "lng": 103.840604},
            "rating": "4.3",
            "reviews": "1000",
            "price": "$$"
        },
        {
            "name": "BlueSG (EV)",
            "description": "RENTAL",
            "type": "ev",
            "url": "www.google.com",
            "formatted_address": "395A Bukit Batok West Avenue 5",
            "address": {"lat": 1.3643, "lng": 103.752021},
            "rating": "4.3",
            "reviews": "1000",
            "price": "$$"
        },
        {
            "name": "BlueSG (EV)",
            "description": "RENTAL + CHARGING",
            "type": "ev",
            "url": "www.google.com",
            "formatted_address": "213 Punggol Walk",
            "address": {"lat": 1.400134, "lng": 103.898428},
            "rating": "4.3",
            "reviews": "1000",
            "price": "$$"
        },
        {
            "name": "BlueSG (EV)",
            "description": "RENTAL",
            "type": "ev",
            "url": "www.google.com",
            "formatted_address": "301 Punggol Central",
            "address": {"lat": 1.403648, "lng": 103.906146},
            "rating": "4.3",
            "reviews": "1000",
            "price": "$$"
        },
        {
            "name": "BlueSG (EV)",
            "description": "RENTAL + CHARGING",
            "type": "ev",
            "url": "www.google.com",
            "formatted_address": "165 Yishun Ring Road",
            "address": {"lat": 1.4355487, "lng": 103.8320274},
            "rating": "4.3",
            "reviews": "1000",
            "price": "$$"
        },
        {
            "name": "BlueSG (EV)",
            "description": "RENTAL + CHARGING",
            "type": "ev",
            "url": "www.google.com",
            "formatted_address": "1 Esplanade Drive",
            "address": {"lat": 1.289691, "lng": 103.85577},
            "rating": "4.3",
            "reviews": "1000",
            "price": "$$"
        },
        {
            "name": "BlueSG (EV)",
            "description": "RENTAL + CHARGING",
            "type": "ev",
            "url": "www.google.com",
            "formatted_address": "707 Hougang Avenue 2",
            "address": {"lat": 1.366507, "lng": 103.888389},
            "rating": "4.3",
            "reviews": "1000",
            "price": "$$"
        },
        {
            "name": "BlueSG (EV)",
            "description": "RENTAL + CHARGING",
            "type": "ev",
            "url": "www.google.com",
            "formatted_address": "609 Bedok Reservoir Road",
            "address": {"lat": 1.33135, "lng": 103.912391},
            "rating": "4.3",
            "reviews": "1000",
            "price": "$$"
        },
        {
            "name": "BlueSG (EV)",
            "description": "RENTAL + CHARGING",
            "type": "ev",
            "url": "www.google.com",
            "formatted_address": "116 Jurong East Street 13",
            "address": {"lat": 1.339583, "lng": 103.734451},
            "rating": "4.3",
            "reviews": "1000",
            "price": "$$"
        },
        {
            "name": "BlueSG (EV)",
            "description": "RENTAL",
            "type": "ev",
            "url": "www.google.com",
            "formatted_address": "31A Circuit Road",
            "address": {"lat": 1.329186, "lng": 103.885573},
            "rating": "4.3",
            "reviews": "1000",
            "price": "$$"
        },
        {
            "name": "BlueSG (EV)",
            "description": "RENTAL",
            "type": "ev",
            "url": "www.google.com",
            "formatted_address": "463 Sembawang Drive",
            "address": {"lat": 1.455575, "lng": 103.814685},
            "rating": "4.3",
            "reviews": "1000",
            "price": "$$"
        },
        {
            "name": "BlueSG (EV)",
            "description": "RENTAL + CHARGING",
            "type": "ev",
            "url": "www.google.com",
            "formatted_address": "241A Bukit Batok East Avenue 5",
            "address": {"lat": 1.350931, "lng": 103.755227},
            "rating": "4.3",
            "reviews": "1000",
            "price": "$$"
        },
        {
            "name": "BlueSG (EV)",
            "description": "RENTAL + CHARGING",
            "type": "ev",
            "url": "www.google.com",
            "formatted_address": "1 Cove Avenue, Sentosa Cove",
            "address": {"lat": 1.247741, "lng": 103.840256},
            "rating": "4.3",
            "reviews": "1000",
            "price": "$$"
        },
        {
            "name": "BlueSG (EV)",
            "description": "RENTAL",
            "type": "ev",
            "url": "www.google.com",
            "formatted_address": "514 Bishan Street 13",
            "address": {"lat": 1.350164, "lng": 103.849647},
            "rating": "4.3",
            "reviews": "1000",
            "price": "$$"
        },
        {
            "name": "BlueSG (EV)",
            "description": "RENTAL",
            "type": "ev",
            "url": "www.google.com",
            "formatted_address": "267 Compassvale Link",
            "address": {"lat": 1.383762, "lng": 103.897028},
            "rating": "4.3",
            "reviews": "1000",
            "price": "$$"
        },
        {
            "name": "BlueSG (EV)",
            "description": "RENTAL",
            "type": "ev",
            "url": "www.google.com",
            "formatted_address": "201 Sengkang East Road",
            "address": {"lat": 1.388419, "lng": 103.892373},
            "rating": "4.3",
            "reviews": "1000",
            "price": "$$"
        },
        {
            "name": "BlueSG (EV)",
            "description": "RENTAL",
            "type": "ev",
            "url": "www.google.com",
            "formatted_address": "245A Pasir Ris Street 21",
            "address": {"lat": 1.370911, "lng": 103.963417},
            "rating": "4.3",
            "reviews": "1000",
            "price": "$$"
        },
        {
            "name": "BlueSG (EV)",
            "description": "RENTAL",
            "type": "ev",
            "url": "www.google.com",
            "formatted_address": "631A Pasir Ris Drive 3",
            "address": {"lat": 1.379375, "lng": 103.940215},
            "rating": "4.3",
            "reviews": "1000",
            "price": "$$"
        },
        {
            "name": "BlueSG (EV)",
            "description": "RENTAL",
            "type": "ev",
            "url": "www.google.com",
            "formatted_address": "682 Edgedale Plains",
            "address": {"lat": 1.403941, "lng": 103.915844},
            "rating": "4.3",
            "reviews": "1000",
            "price": "$$"
        },
        {
            "name": "BlueSG (EV)",
            "description": "RENTAL + CHARGING",
            "type": "ev",
            "url": "www.google.com",
            "formatted_address": "3E River Valley Road",
            "address": {"lat": 1.290715, "lng": 103.846146},
            "rating": "4.3",
            "reviews": "1000",
            "price": "$$"
        },
        {
            "name": "BlueSG (EV)",
            "description": "RENTAL + CHARGING",
            "type": "ev",
            "url": "www.google.com",
            "formatted_address": "373A Hougang Street 31",
            "address": {"lat": 1.362366, "lng": 103.890053},
            "rating": "4.3",
            "reviews": "1000",
            "price": "$$"
        },
        {
            "name": "BlueSG (EV)",
            "description": "RENTAL",
            "type": "ev",
            "url": "www.google.com",
            "formatted_address": "184 Rivervale Crescent",
            "address": {"lat": 1.39209, "lng": 103.908205},
            "rating": "4.3",
            "reviews": "1000",
            "price": "$$"
        },
        {
            "name": "BlueSG (EV)",
            "description": "RENTAL",
            "type": "ev",
            "url": "www.google.com",
            "formatted_address": "307 Yishun Ring Road",
            "address": {"lat": 1.430843, "lng": 103.840951},
            "rating": "4.3",
            "reviews": "1000",
            "price": "$$"
        },
        {
            "name": "BlueSG (EV)",
            "description": "RENTAL",
            "type": "ev",
            "url": "www.google.com",
            "formatted_address": "312 Clementi Avenue 4",
            "address": {"lat": 1.319651, "lng": 103.764444},
            "rating": "4.3",
            "reviews": "1000",
            "price": "$$"
        },
        {
            "name": "BlueSG (EV)",
            "description": "RENTAL + CHARGING",
            "type": "ev",
            "url": "www.google.com",
            "formatted_address": "417 Pasir Ris Drive 6",
            "address": {"lat": 1.372102, "lng": 103.955033},
            "rating": "4.3",
            "reviews": "1000",
            "price": "$$"
        },
        {
            "name": "BlueSG (EV)",
            "description": "RENTAL",
            "type": "ev",
            "url": "www.google.com",
            "formatted_address": "146 Prinsep Street",
            "address": {"lat": 1.302834, "lng": 103.852194},
            "rating": "4.3",
            "reviews": "1000",
            "price": "$$"
        },
        {
            "name": "BlueSG (EV)",
            "description": "RENTAL",
            "type": "ev",
            "url": "www.google.com",
            "formatted_address": "614A Woodlands Avenue 4",
            "address": {"lat": 1.434854, "lng": 103.795957},
            "rating": "4.3",
            "reviews": "1000",
            "price": "$$"
        },
        {
            "name": "BlueSG (EV)",
            "description": "RENTAL + CHARGING",
            "type": "ev",
            "url": "www.google.com",
            "formatted_address": "212 Serangoon Avenue 4",
            "address": {"lat": 1.356934, "lng": 103.873229},
            "rating": "4.3",
            "reviews": "1000",
            "price": "$$"
        },
        {
            "name": "BlueSG (EV)",
            "description": "RENTAL",
            "type": "ev",
            "url": "www.google.com",
            "formatted_address": "276 Jurong West Street 25",
            "address": {"lat": 1.35377, "lng": 103.703214},
            "rating": "4.3",
            "reviews": "1000",
            "price": "$$"
        },
        {
            "name": "BlueSG (EV)",
            "description": "RENTAL",
            "type": "ev",
            "url": "www.google.com",
            "formatted_address": "172A Hougang Avenue 1",
            "address": {"lat": 1.350686, "lng": 103.889005},
            "rating": "4.3",
            "reviews": "1000",
            "price": "$$"
        },
        {
            "name": "BlueSG (EV)",
            "description": "RENTAL",
            "type": "ev",
            "url": "www.google.com",
            "formatted_address": "117D Rivervale Drive",
            "address": {"lat": 1.382819, "lng": 103.90311},
            "rating": "4.3",
            "reviews": "1000",
            "price": "$$"
        },
        {
            "name": "BlueSG (EV)",
            "description": "RENTAL + CHARGING",
            "type": "ev",
            "url": "www.google.com",
            "formatted_address": "329 Anchorvale Street",
            "address": {"lat": 1.39634, "lng": 103.889296},
            "rating": "4.3",
            "reviews": "1000",
            "price": "$$"
        },
        {
            "name": "BlueSG (EV)",
            "description": "RENTAL + CHARGING",
            "type": "ev",
            "url": "www.google.com",
            "formatted_address": "966A Hougang Avenue 9",
            "address": {"lat": 1.377891, "lng": 103.877869},
            "rating": "4.3",
            "reviews": "1000",
            "price": "$$"
        },
        {
            "name": "BlueSG (EV)",
            "description": "RENTAL",
            "type": "ev",
            "url": "www.google.com",
            "formatted_address": "668A Choa Chu Kang Crescent",
            "address": {"lat": 1.40154, "lng": 103.75027},
            "rating": "4.3",
            "reviews": "1000",
            "price": "$$"
        },
        {
            "name": "BlueSG (EV)",
            "description": "RENTAL + CHARGING",
            "type": "ev",
            "url": "www.google.com",
            "formatted_address": "114 Ang Mo Kio Avenue 4",
            "address": {"lat": 1.372293, "lng": 103.836312},
            "rating": "4.3",
            "reviews": "1000",
            "price": "$$"
        },
        {
            "name": "BlueSG (EV)",
            "description": "RENTAL",
            "type": "ev",
            "url": "www.google.com",
            "formatted_address": "502A Choa Chu Kang Street 51",
            "address": {"lat": 1.388849, "lng": 103.74302},
            "rating": "4.3",
            "reviews": "1000",
            "price": "$$"
        },
        {
            "name": "BlueSG (EV)",
            "description": "RENTAL",
            "type": "ev",
            "url": "www.google.com",
            "formatted_address": "792A Choa Chu Kang North 6",
            "address": {"lat": 1.395383, "lng": 103.74949},